[
  {
    "Name": "William Osler Health System - Humber College",
    "Address1": "2 Janda Court",
    "Address2": "",
    "City": "Etobicoke",
    "Province": "Ontario",
    "Postal Code": "M9W 0A4",
    "Latitude": 43.723497,
    "Longitude": -79.601519,
    "Country": "CA",
    "Timezone Name": "America/Toronto"
  },
  {
    "Name": "Humber River Hospital",
    "Address1": "2111 Finch Avenue West",
    "Address2": "",
    "City": "Toronto",
    "Province": "Ontario",
    "Postal Code": "M3N 1N1",
    "Latitude": 43.754975,
    "Longitude": -79.526529,
    "Country": "CA",
    "Timezone Name": "America/Toronto"
  },
  {
    "Name": "Michael Garron Hospital Emergency Department",
    "Address1": "825 Coxwell Avenue",
    "Address2": "",
    "City": "Toronto",
    "Province": "Ontario",
    "Postal Code": "M4C 3E7",
    "Latitude": 43.689832,
    "Longitude": -79.324954,
    "Country": "CA",
    "Timezone Name": "America/Toronto"
  },
  {
    "Name": "Michael Garron Hospital  Outpatient Clinic",
    "Address1": "825 Coxwell Avenue",
    "Address2": "",
    "City": "Toronto",
    "Province": "Ontario",
    "Postal Code": "M4C 3E7",
    "Latitude": 43.689832,
    "Longitude": -79.324954,
    "Country": "CA",
    "Timezone Name": "America/Toronto"
  },
  {
    "Name": "Mount Sinai Hospital",
    "Address1": "600 University Avenue",
    "Address2": "",
    "City": "Toronto",
    "Province": "Ontario",
    "Postal Code": "M5G 1X5",
    "Latitude": 43.657536,
    "Longitude": -79.390445,
    "Country": "CA",
    "Timezone Name": "America/Toronto"
  },
  {
    "Name": "North York General Hospital - Branson",
    "Address1": "555 Finch Avenue West",
    "Address2": "",
    "City": "Toronto",
    "Province": "Ontario",
    "Postal Code": "M2R 1N5",
    "Latitude": 43.77161,
    "Longitude": -79.447382,
    "Country": "CA",
    "Timezone Name": "America/Toronto"
  },
  {
    "Name": "North York General Hospital",
    "Address1": "4001 Leslie Street",
    "Address2": "",
    "City": "Toronto",
    "Province": "Ontario",
    "Postal Code": "M2K 1E1",
    "Latitude": 43.769627,
    "Longitude": -79.362457,
    "Country": "CA",
    "Timezone Name": "America/Toronto"
  },
  {
    "Name": "Scarborough Health Network - Birchmount",
    "Address1": "3030 Birchmount Road",
    "Address2": "",
    "City": "Toronto",
    "Province": "Ontario",
    "Postal Code": "M1W 3W3",
    "Latitude": 43.801891,
    "Longitude": -79.309054,
    "Country": "CA",
    "Timezone Name": "America/Toronto"
  },
  {
    "Name": "Scarborough Health Network Centenary Site",
    "Address1": "2867 Ellesmere Road",
    "Address2": "",
    "City": "Toronto",
    "Province": "Ontario",
    "Postal Code": "M1E 4B9",
    "Latitude": 43.78009,
    "Longitude": -79.204964,
    "Country": "CA",
    "Timezone Name": "America/Toronto"
  },
  {
    "Name": "Sunnybrook Health Sciences Centre",
    "Address1": "2075 Bayview Avenue",
    "Address2": "",
    "City": "Toronto",
    "Province": "Ontario",
    "Postal Code": "M4N 3M5",
    "Latitude": 43.721938,
    "Longitude": -79.377875,
    "Country": "CA",
    "Timezone Name": "America/Toronto"
  },
  {
    "Name": "Toronto Western Hospital",
    "Address1": "347 Bathurst Street",
    "Address2": "",
    "City": "Toronto",
    "Province": "Ontario",
    "Postal Code": "M5T 2S7",
    "Latitude": 43.652566,
    "Longitude": -79.405842,
    "Country": "CA",
    "Timezone Name": "America/Toronto"
  },
  {
    "Name": "St. Joseph's Health Centre",
    "Address1": "30 The Queensway",
    "Address2": "",
    "City": "Toronto",
    "Province": "Ontario",
    "Postal Code": "M6R 1B5",
    "Latitude": 43.639359,
    "Longitude": -79.450101,
    "Country": "CA",
    "Timezone Name": "America/Toronto"
  },
  {
    "Name": "St Michael's Hospital",
    "Address1": "209 Victoria Street",
    "Address2": "",
    "City": "Toronto",
    "Province": "Ontario",
    "Postal Code": "M5B 1T8",
    "Latitude": 43.654935,
    "Longitude": -79.378684,
    "Country": "CA",
    "Timezone Name": "America/Toronto"
  },
  {
    "Name": "Women's College Hospital",
    "Address1": "76 Grenville Street",
    "Address2": "",
    "City": "Toronto",
    "Province": "Ontario",
    "Postal Code": "M5S 1B2",
    "Latitude": 43.661517,
    "Longitude": -79.387379,
    "Country": "CA",
    "Timezone Name": "America/Toronto"
  },
  {
    "Name": "Trillium Health Partners - Clinical Administrative Building",
    "Address1": "15 Bronte College Court",
    "Address2": "",
    "City": "Mississauga",
    "Province": "Ontario",
    "Postal Code": "L5B 1M9",
    "Latitude": 43.571975,
    "Longitude": -79.605855,
    "Country": "CA",
    "Timezone Name": "America/Toronto"
  },
  {
    "Name": "Credit Valley – Drive-Thru",
    "Address1": "2200 Eglinton Avenue West",
    "Address2": "",
    "City": "Mississauga",
    "Province": "Ontario",
    "Postal Code": "L5M 2N1",
    "Latitude": 43.558632,
    "Longitude": -79.703401,
    "Country": "CA",
    "Timezone Name": "America/Toronto"
  },
  {
    "Name": "Credit Valley Hospital – Valley House",
    "Address1": "2200 Erin Mills Parkway",
    "Address2": "",
    "City": "Mississauga",
    "Province": "Ontario",
    "Postal Code": "L5M 7S4",
    "Latitude": 43.57159,
    "Longitude": -79.705498,
    "Country": "CA",
    "Timezone Name": "America/Toronto"
  },
  {
    "Name": "William Osler Health System",
    "Address1": "500 Ray Lawson Boulevard",
    "Address2": "",
    "City": "Brampton",
    "Province": "Ontario",
    "Postal Code": "L6W 2Z8",
    "Latitude": 43.652879,
    "Longitude": -79.73584,
    "Country": "CA",
    "Timezone Name": "America/Toronto"
  },
  {
    "Name": "Milton District Hospital",
    "Address1": "725 Bronte Street South",
    "Address2": "",
    "City": "Milton",
    "Province": "Ontario",
    "Postal Code": "L9T 9K1",
    "Latitude": 43.49488,
    "Longitude": -79.872763,
    "Country": "CA",
    "Timezone Name": "America/Toronto"
  },
  {
    "Name": "Oakville Trafalgar Memorial Hospital",
    "Address1": "3001 Hospital Gate",
    "Address2": "",
    "City": "Oakville",
    "Province": "Ontario",
    "Postal Code": "L6M 0L8",
    "Latitude": 43.450466,
    "Longitude": -79.763369,
    "Country": "CA",
    "Timezone Name": "America/Toronto"
  },
  {
    "Name": "Georgetown Hospital",
    "Address1": "1 Princess Anne Drive",
    "Address2": "",
    "City": "Georgetown",
    "Province": "Ontario",
    "Postal Code": "L7G 2B8",
    "Latitude": 43.644234,
    "Longitude": -79.933485,
    "Country": "CA",
    "Timezone Name": "America/Toronto"
  },
  {
    "Name": "Joseph Brant Hospital",
    "Address1": "1245 Lakeshore Boulevard",
    "Address2": "",
    "City": "Burlington",
    "Province": "Ontario",
    "Postal Code": "L7S 0A2",
    "Latitude": 43.316557,
    "Longitude": -79.801887,
    "Country": "CA",
    "Timezone Name": "America/Toronto"
  },
  {
    "Name": "MacKenzie Health",
    "Address1": "10 Trench Street",
    "Address2": "",
    "City": "Richmond Hill",
    "Province": "Ontario",
    "Postal Code": "L4C 4Z3",
    "Latitude": 43.870378,
    "Longitude": -79.45071,
    "Country": "CA",
    "Timezone Name": "America/Toronto"
  },
  {
    "Name": "Markham Stouffville Hospital",
    "Address1": "381 Church Street",
    "Address2": "",
    "City": "Markham",
    "Province": "Ontario",
    "Postal Code": "L3P 7P3",
    "Latitude": 43.883856,
    "Longitude": -79.23149,
    "Country": "CA",
    "Timezone Name": "America/Toronto"
  },
  {
    "Name": "Southlake Regional Health Centre",
    "Address1": "596 Davis Drive",
    "Address2": "",
    "City": "Newmarket",
    "Province": "Ontario",
    "Postal Code": "L3Y 2P9",
    "Latitude": 44.060742,
    "Longitude": -79.452211,
    "Country": "CA",
    "Timezone Name": "America/Toronto"
  },
  {
    "Name": "Lakeridge Health",
    "Address1": "1 Hospital Court",
    "Address2": "",
    "City": "Oshawa",
    "Province": "Ontario",
    "Postal Code": "L1G 2B9",
    "Latitude": 43.905528,
    "Longitude": -78.868946,
    "Country": "CA",
    "Timezone Name": "America/Toronto"
  },
  {
    "Name": "North Durham COVID-19 Assessment Centre",
    "Address1": "19 Jeffery Street",
    "Address2": "",
    "City": "Port Perry",
    "Province": "Ontario",
    "Postal Code": "L9L 1Z4",
    "Latitude": 44.086511,
    "Longitude": -78.953369,
    "Country": "CA",
    "Timezone Name": "America/Toronto"
  },
  {
    "Name": "Garnet B. Rickard Recreation Complex",
    "Address1": "2440 Durham Region Highway 2",
    "Address2": "",
    "City": "Bowmanville",
    "Province": "Ontario",
    "Postal Code": "L1C 3K2",
    "Latitude": 43.908062,
    "Longitude": -78.682542,
    "Country": "CA",
    "Timezone Name": "America/Toronto"
  },
  {
    "Name": "Lakeridge Health - Ajax Pickering",
    "Address1": "580 Harwood Avenue South",
    "Address2": "",
    "City": "Ajax",
    "Province": "Ontario",
    "Postal Code": "L1S 2J4",
    "Latitude": 43.836897,
    "Longitude": -79.017085,
    "Country": "CA",
    "Timezone Name": "America/Toronto"
  },
  {
    "Name": "Akwesasne COVID-19 Assessment Centre",
    "Address1": "31 Hilltop Drive",
    "Address2": "",
    "City": "Akwesasne",
    "Province": "Quebec",
    "Postal Code": "H0M 1A0",
    "Latitude": 45.000203,
    "Longitude": -74.652892,
    "Country": "CA",
    "Timezone Name": "America/Toronto"
  },
  {
    "Name": "Stevenson Memorial Hospital",
    "Address1": "200 Fletcher Crescent",
    "Address2": "",
    "City": "Alliston",
    "Province": "Ontario",
    "Postal Code": "L9R 1W7",
    "Latitude": 44.155381,
    "Longitude": -79.875056,
    "Country": "CA",
    "Timezone Name": "America/Toronto"
  },
  {
    "Name": "Almonte General Hospital",
    "Address1": "75 Spring Drive",
    "Address2": "",
    "City": "Almonte",
    "Province": "Ontario",
    "Postal Code": "K0A 1A0",
    "Latitude": 45.228555,
    "Longitude": -76.18975,
    "Country": "CA",
    "Timezone Name": "America/Toronto"
  },
  {
    "Name": "Nick Smith Centre / Renfrew County Virtual Triage and Assessment Centre",
    "Address1": "153 McLean Avenue",
    "Address2": "",
    "City": "Arnprior",
    "Province": "Ontario",
    "Postal Code": "K75 3TI",
    "Latitude": 45.439723,
    "Longitude": -76.337448,
    "Country": "CA",
    "Timezone Name": "America/Toronto"
  },
  {
    "Name": "Atikokan Family Health Team",
    "Address1": "101 Zuke Road",
    "Address2": "",
    "City": "Atikokan",
    "Province": "Ontario",
    "Postal Code": "P0T 1C0",
    "Latitude": 48.754422,
    "Longitude": -91.600776,
    "Country": "CA",
    "Timezone Name": "America/Atikokan"
  },
  {
    "Name": "Attawapiskat Hospital",
    "Address1": "972 Riverside East",
    "Address2": "",
    "City": "Attawapiskat",
    "Province": "Ontario",
    "Postal Code": "P0L 1A0",
    "Latitude": 52.212917,
    "Longitude": -81.67898,
    "Country": "CA",
    "Timezone Name": "America/Toronto"
  },
  {
    "Name": "North Hastings COVID-19 Assessment Center",
    "Address1": "1 Manor Lane",
    "Address2": "",
    "City": "Bancroft",
    "Province": "Ontario",
    "Postal Code": "K0L 1C0",
    "Latitude": 45.05523,
    "Longitude": -77.863443,
    "Country": "CA",
    "Timezone Name": "America/Toronto"
  },
  {
    "Name": "Barrie Community Health Centre",
    "Address1": "490 Huronia Road",
    "Address2": "",
    "City": "Barrie",
    "Province": "Ontario",
    "Postal Code": "L4N 6M2",
    "Latitude": 44.347165,
    "Longitude": -79.664255,
    "Country": "CA",
    "Timezone Name": "America/Toronto"
  },
  {
    "Name": "Royal Victoria Regional Health Centre - Clinic C",
    "Address1": "201 Georgian Drive",
    "Address2": "",
    "City": "Barrie",
    "Province": "Ontario",
    "Postal Code": "L4M 6M2",
    "Latitude": 44.414094,
    "Longitude": -79.661131,
    "Country": "CA",
    "Timezone Name": "America/Toronto"
  },
  {
    "Name": "Quinte Healthcare - Quinte Secondary School",
    "Address1": "45 College Street West",
    "Address2": "",
    "City": "Belleville",
    "Province": "Ontario",
    "Postal Code": "K8P 2G3",
    "Latitude": 44.175925,
    "Longitude": -77.395008,
    "Country": "CA",
    "Timezone Name": "America/Toronto"
  },
  {
    "Name": "North Shore Health Network - Blind River",
    "Address1": "525 Causley Street",
    "Address2": "",
    "City": "Blind River",
    "Province": "Ontario",
    "Postal Code": "P0R 1B0",
    "Latitude": 46.185138,
    "Longitude": -82.953376,
    "Country": "CA",
    "Timezone Name": "America/Toronto"
  },
  {
    "Name": "Bracebridge Rotary Centre",
    "Address1": "131 Wellington Street",
    "Address2": "",
    "City": "Bracebridge",
    "Province": "Ontario",
    "Postal Code": "P1L 1E2",
    "Latitude": 45.037195,
    "Longitude": -79.31802,
    "Country": "CA",
    "Timezone Name": "America/Toronto"
  },
  {
    "Name": "William Osler Health System - South Fletcher's Sportsplex",
    "Address1": "500 Ray Lawson Boulevard",
    "Address2": "",
    "City": "Brampton",
    "Province": "Ontario",
    "Postal Code": "L6W 2Z8",
    "Latitude": 43.652879,
    "Longitude": -79.73584,
    "Country": "CA",
    "Timezone Name": "America/Toronto"
  },
  {
    "Name": "Brant Community Healthcare System",
    "Address1": "200 Terrace Hill Street",
    "Address2": "",
    "City": "Brantford",
    "Province": "Ontario",
    "Postal Code": "N3R 1G9",
    "Latitude": 43.152196,
    "Longitude": -80.274682,
    "Country": "CA",
    "Timezone Name": "America/Toronto"
  },
  {
    "Name": "Brockville General Hospital",
    "Address1": "100 Magedoma Boulevard",
    "Address2": "",
    "City": "Brockville",
    "Province": "Ontario",
    "Postal Code": "K6V 7J5",
    "Latitude": 44.609879,
    "Longitude": -75.699657,
    "Country": "CA",
    "Timezone Name": "America/Toronto"
  },
  {
    "Name": "Cambridge Assessment Centre",
    "Address1": "700 Coronation Boulevard",
    "Address2": "",
    "City": "Cambridge",
    "Province": "Ontario",
    "Postal Code": "N1R 3G2",
    "Latitude": 43.378671,
    "Longitude": -80.328186,
    "Country": "CA",
    "Timezone Name": "America/Toronto"
  },
  {
    "Name": "Trent Hills COVID19 Assessment Centre",
    "Address1": "179 Saskatoon Avenue",
    "Address2": "",
    "City": "Campbellford",
    "Province": "Ontario",
    "Postal Code": "K0L 1L0",
    "Latitude": 44.291509,
    "Longitude": -77.798585,
    "Country": "CA",
    "Timezone Name": "America/Toronto"
  },
  {
    "Name": "Casselman COVID-19 Assessment Centre",
    "Address1": "872 Principale Street",
    "Address2": "",
    "City": "Casselman",
    "Province": "Ontario",
    "Postal Code": "K0A 1M0",
    "Latitude": 45.321565,
    "Longitude": -75.106568,
    "Country": "CA",
    "Timezone Name": "America/Toronto"
  },
  {
    "Name": "Chapleau Health Services",
    "Address1": "2 Broomhead Road",
    "Address2": "",
    "City": "Chapleau",
    "Province": "Ontario",
    "Postal Code": "P0M 1K0",
    "Latitude": 47.840196,
    "Longitude": -83.415153,
    "Country": "CA",
    "Timezone Name": "America/Toronto"
  },
  {
    "Name": "Chatham-Kent Health Alliance",
    "Address1": "47 Emma Street",
    "Address2": "",
    "City": "Chatham",
    "Province": "Ontario",
    "Postal Code": "N7L 1A6",
    "Latitude": 42.406468,
    "Longitude": -82.192059,
    "Country": "CA",
    "Timezone Name": "America/Toronto"
  },
  {
    "Name": "Northumberland Hills Hospital",
    "Address1": "1000 Depalma Drive",
    "Address2": "",
    "City": "Cobourg",
    "Province": "Ontario",
    "Postal Code": "K9A 5W6",
    "Latitude": 43.976643,
    "Longitude": -78.198421,
    "Country": "CA",
    "Timezone Name": "America/Toronto"
  },
  {
    "Name": "The Lady Minto Hospital/Boy Scout Hall",
    "Address1": "438 11th Avenue",
    "Address2": "",
    "City": "Cochrane",
    "Province": "Ontario",
    "Postal Code": "P0L 1C0",
    "Latitude": 49.072783,
    "Longitude": -81.017962,
    "Country": "CA",
    "Timezone Name": "America/Toronto"
  },
  {
    "Name": "Collingwood Health Centre",
    "Address1": "186 Erie Street",
    "Address2": "",
    "City": "Collingwood",
    "Province": "Ontario",
    "Postal Code": "L9Y 4T3",
    "Latitude": 44.501081,
    "Longitude": -80.205089,
    "Country": "CA",
    "Timezone Name": "America/Toronto"
  },
  {
    "Name": "Cornwall COVID-19 Assessment Centre",
    "Address1": "850 McConnell Avenue",
    "Address2": "",
    "City": "Cornwall",
    "Province": "Ontario",
    "Postal Code": "K6H 4M3",
    "Latitude": 45.030121,
    "Longitude": -74.719269,
    "Country": "CA",
    "Timezone Name": "America/Toronto"
  },
  {
    "Name": "Deep River Arena",
    "Address1": "2 Club House Road",
    "Address2": "",
    "City": "Deep River",
    "Province": "Ontario",
    "Postal Code": "K0J 1P0",
    "Latitude": 46.094453,
    "Longitude": -77.486501,
    "Country": "CA",
    "Timezone Name": "America/Toronto"
  },
  {
    "Name": "Dingwall Medical Clinic Building",
    "Address1": "40 Goodall Street",
    "Address2": "",
    "City": "Dryden",
    "Province": "Ontario",
    "Postal Code": "P8N 2Z6",
    "Latitude": 49.769969,
    "Longitude": -92.841629,
    "Country": "CA",
    "Timezone Name": "America/Winnipeg"
  },
  {
    "Name": "Eganville Community Arena",
    "Address1": "178 Jane Street",
    "Address2": "",
    "City": "Eganville",
    "Province": "Ontario",
    "Postal Code": "K0J 1T0",
    "Latitude": 45.541424,
    "Longitude": -77.105611,
    "Country": "CA",
    "Timezone Name": "America/Toronto"
  },
  {
    "Name": "Elliot Lake Family Health Team",
    "Address1": "31 Nova Scotia Walk",
    "Address2": "",
    "City": "Elliot Lake",
    "Province": "Ontario",
    "Postal Code": "P5A 1Y9",
    "Latitude": 46.373464,
    "Longitude": -82.652893,
    "Country": "CA",
    "Timezone Name": "America/Toronto"
  },
  {
    "Name": "Englehart District Hospital",
    "Address1": "63 Fifth Street",
    "Address2": "",
    "City": "Englehart",
    "Province": "Ontario",
    "Postal Code": "P0J 1H0",
    "Latitude": 47.824842,
    "Longitude": -79.878656,
    "Country": "CA",
    "Timezone Name": "America/Toronto"
  },
  {
    "Name": "Espanola & Area COVID Mobile Assessment Centre",
    "Address1": "825 McKinnon Drive",
    "Address2": "",
    "City": "Espanola",
    "Province": "Ontario",
    "Postal Code": "P5E 1R4",
    "Latitude": 46.247982,
    "Longitude": -81.782313,
    "Country": "CA",
    "Timezone Name": "America/Toronto"
  },
  {
    "Name": "Fort Albany Hospital",
    "Address1": "5 Airport Road",
    "Address2": "",
    "City": "Fort Albany",
    "Province": "Ontario",
    "Postal Code": "P0L 1H0",
    "Latitude": 49.709249,
    "Longitude": -83.694939,
    "Country": "CA",
    "Timezone Name": "America/Toronto"
  },
  {
    "Name": "Community Health Services Building",
    "Address1": "206 Victoria Avenue",
    "Address2": "",
    "City": "Fort Frances",
    "Province": "Ontario",
    "Postal Code": "P9A 2B7",
    "Latitude": 48.606805,
    "Longitude": -93.392585,
    "Country": "CA",
    "Timezone Name": "America/Winnipeg"
  },
  {
    "Name": "Geraldton District Hospital",
    "Address1": "510 Hogarth Avenue",
    "Address2": "",
    "City": "Geraldton",
    "Province": "Ontario",
    "Postal Code": "P0T 1M0",
    "Latitude": 49.722285,
    "Longitude": -86.950804,
    "Country": "CA",
    "Timezone Name": "America/Toronto"
  },
  {
    "Name": "Goderich Assessment Centre",
    "Address1": "185 Keays Street",
    "Address2": "",
    "City": "Goderich",
    "Province": "Ontario",
    "Postal Code": "N7A 3N4",
    "Latitude": 43.735271,
    "Longitude": -81.712412,
    "Country": "CA",
    "Timezone Name": "America/Toronto"
  },
  {
    "Name": "South Huron and Grand Bend Assessment Centre",
    "Address1": "69 Main Street East",
    "Address2": "",
    "City": "Grand Bend",
    "Province": "Ontario",
    "Postal Code": "N0M 1T0",
    "Latitude": 43.309814,
    "Longitude": -81.750196,
    "Country": "CA",
    "Timezone Name": "America/Toronto"
  },
  {
    "Name": "Guelph General Hospital",
    "Address1": "151 Victoria Road North",
    "Address2": "",
    "City": "Guelph",
    "Province": "Ontario",
    "Postal Code": "N1E 5H5",
    "Latitude": 43.569451,
    "Longitude": -80.24896,
    "Country": "CA",
    "Timezone Name": "America/Toronto"
  },
  {
    "Name": "West Haldimand General Hospital",
    "Address1": "75 Parkview Road",
    "Address2": "",
    "City": "Hagersville",
    "Province": "Ontario",
    "Postal Code": "N0A 1H0",
    "Latitude": 42.958355,
    "Longitude": -80.041627,
    "Country": "CA",
    "Timezone Name": "America/Toronto"
  },
  {
    "Name": "Haliburton Highlands Health Services",
    "Address1": "7217 Gelert Road",
    "Address2": "",
    "City": "Haliburton",
    "Province": "Ontario",
    "Postal Code": "K0M 1S0",
    "Latitude": 45.039094,
    "Longitude": -78.527561,
    "Country": "CA",
    "Timezone Name": "America/Toronto"
  },
  {
    "Name": "Dave Andreychuk Mountain Arena Assessment Centre",
    "Address1": "25 Hester Street",
    "Address2": "",
    "City": "Hamilton",
    "Province": "Ontario",
    "Postal Code": "L9A 2N3",
    "Latitude": 43.225568,
    "Longitude": -79.881006,
    "Country": "CA",
    "Timezone Name": "America/Toronto"
  },
  {
    "Name": "Hamilton Health Sciences",
    "Address1": "690 Main Street West",
    "Address2": "",
    "City": "Hamilton",
    "Province": "Ontario",
    "Postal Code": "L8S 1A4",
    "Latitude": 43.260192,
    "Longitude": -79.898177,
    "Country": "CA",
    "Timezone Name": "America/Toronto"
  },
  {
    "Name": "St. Joseph's Healthcare Hamilton - East End",
    "Address1": "2757 King Street East",
    "Address2": "",
    "City": "Hamilton",
    "Province": "Ontario",
    "Postal Code": "L8G 5E4",
    "Latitude": 43.221757,
    "Longitude": -79.773837,
    "Country": "CA",
    "Timezone Name": "America/Toronto"
  },
  {
    "Name": "Hanover and District Hospital",
    "Address1": "90 7th Avenue",
    "Address2": "",
    "City": "Hanover",
    "Province": "Ontario",
    "Postal Code": "N4N 2G9",
    "Latitude": 44.148351,
    "Longitude": -81.035461,
    "Country": "CA",
    "Timezone Name": "America/Toronto"
  },
  {
    "Name": "Hawkesbury and District General Hospital - Children Rehab Clinic",
    "Address1": "750 Laurier Street",
    "Address2": "",
    "City": "Hawkesbury",
    "Province": "Ontario",
    "Postal Code": "K6A 3N9",
    "Latitude": 45.603867,
    "Longitude": -74.597789,
    "Country": "CA",
    "Timezone Name": "America/Toronto"
  },
  {
    "Name": "Hearst COVID-19 Assessment Centre",
    "Address1": "1403 Edward Street",
    "Address2": "",
    "City": "Hearst",
    "Province": "Ontario",
    "Postal Code": "P0L 1N0",
    "Latitude": 49.686852,
    "Longitude": -83.678128,
    "Country": "CA",
    "Timezone Name": "America/Toronto"
  },
  {
    "Name": "Hornepayne Community Hospital",
    "Address1": "278 Front Street",
    "Address2": "",
    "City": "Hornepayne",
    "Province": "Ontario",
    "Postal Code": "P0M 1Z0",
    "Latitude": 49.210155,
    "Longitude": -84.774497,
    "Country": "CA",
    "Timezone Name": "America/Toronto"
  },
  {
    "Name": "Huntsville District Memorial Hospital",
    "Address1": "100 Frank Miller Drive",
    "Address2": "",
    "City": "Huntsville",
    "Province": "Ontario",
    "Postal Code": "P1H 1H7",
    "Latitude": 45.33919,
    "Longitude": -79.205821,
    "Country": "CA",
    "Timezone Name": "America/Toronto"
  },
  {
    "Name": "Anson General Hospital site",
    "Address1": "58 Anson Drive",
    "Address2": "",
    "City": "Iroquois Falls",
    "Province": "Ontario",
    "Postal Code": "P0K 1E0",
    "Latitude": 48.768604,
    "Longitude": -80.684133,
    "Country": "CA",
    "Timezone Name": "America/Toronto"
  },
  {
    "Name": "Sensenbrenner Hospital",
    "Address1": "7 Aurora Avenue",
    "Address2": "",
    "City": "Kapuskasing",
    "Province": "Ontario",
    "Postal Code": "P5N 1J6",
    "Latitude": 49.419436,
    "Longitude": -82.430564,
    "Country": "CA",
    "Timezone Name": "America/Toronto"
  },
  {
    "Name": "Weeneebayko Area Health Authority",
    "Address1": "1 St. Andrews Street",
    "Address2": "",
    "City": "Kashechewan",
    "Province": "Ontario",
    "Postal Code": "P0L 1S0",
    "Latitude": 52.288834,
    "Longitude": -81.649359,
    "Country": "CA",
    "Timezone Name": "America/Toronto"
  },
  {
    "Name": "Lake of the Woods District Hospital",
    "Address1": "21 Sylvan Street",
    "Address2": "",
    "City": "Kenora",
    "Province": "Ontario",
    "Postal Code": "P9N 3W7",
    "Latitude": 49.767494,
    "Longitude": -94.499375,
    "Country": "CA",
    "Timezone Name": "America/Winnipeg"
  },
  {
    "Name": "South Bruce Grey Health Centre - Kincardine Campus",
    "Address1": "1199 Queen Street",
    "Address2": "",
    "City": "Kincardine",
    "Province": "Ontario",
    "Postal Code": "N2Z 1J4",
    "Latitude": 44.188962,
    "Longitude": -81.625385,
    "Country": "CA",
    "Timezone Name": "America/Toronto"
  },
  {
    "Name": "Kingston - Leon's Centre",
    "Address1": "1 Tragically Hip Way",
    "Address2": "",
    "City": "Kingston",
    "Province": "Ontario",
    "Postal Code": "K7K 0B4",
    "Latitude": 44.2569,
    "Longitude": -76.4717,
    "Country": "CA",
    "Timezone Name": "America/Toronto"
  },
  {
    "Name": "Kirkland and District Hospital",
    "Address1": "145 Government Road East",
    "Address2": "",
    "City": "Kirkland Lake",
    "Province": "Ontario",
    "Postal Code": "P2N 3P4",
    "Latitude": 48.146993,
    "Longitude": -80.046903,
    "Country": "CA",
    "Timezone Name": "America/Toronto"
  },
  {
    "Name": "Grand River Hospital - Drive Thru COVID-19 Assessment Center",
    "Address1": "131 Glasgow Street",
    "Address2": "",
    "City": "Kitchener",
    "Province": "Ontario",
    "Postal Code": "N2G 2G9",
    "Latitude": 43.452949,
    "Longitude": -80.514024,
    "Country": "CA",
    "Timezone Name": "America/Toronto"
  },
  {
    "Name": "Erie Shores Healthcare",
    "Address1": "194 Talbot Street West",
    "Address2": "",
    "City": "Leamington",
    "Province": "Ontario",
    "Postal Code": "N8H 1N9",
    "Latitude": 42.048686,
    "Longitude": -82.61456,
    "Country": "CA",
    "Timezone Name": "America/Toronto"
  },
  {
    "Name": "RMH COVID-19 Assessment Centre",
    "Address1": "10 Angeline Street North",
    "Address2": "",
    "City": "Lindsay",
    "Province": "Ontario",
    "Postal Code": "K9V 4M8",
    "Latitude": 44.351606,
    "Longitude": -78.751364,
    "Country": "CA",
    "Timezone Name": "America/Toronto"
  },
  {
    "Name": "Listowel Memorial Hospital",
    "Address1": "255 Elizabeth Street East",
    "Address2": "",
    "City": "Listowel",
    "Province": "Ontario",
    "Postal Code": "N4W 2P5",
    "Latitude": 43.733325,
    "Longitude": -80.94897,
    "Country": "CA",
    "Timezone Name": "America/Toronto"
  },
  {
    "Name": "Manitoulin Health Centre",
    "Address1": "11 Meredith Street East",
    "Address2": "",
    "City": "Little Current",
    "Province": "Ontario",
    "Postal Code": "P0P 1K0",
    "Latitude": 45.978912,
    "Longitude": -81.926375,
    "Country": "CA",
    "Timezone Name": "America/Toronto"
  },
  {
    "Name": "Oakridge Arena",
    "Address1": "825 Valetta Street",
    "Address2": "",
    "City": "London",
    "Province": "Ontario",
    "Postal Code": "N6H 2Z2",
    "Latitude": 42.97526,
    "Longitude": -81.306385,
    "Country": "CA",
    "Timezone Name": "America/Toronto"
  },
  {
    "Name": "Carling Heights Optimist Community Centre",
    "Address1": "656 Elizabeth Street",
    "Address2": "",
    "City": "London",
    "Province": "Ontario",
    "Postal Code": "N5Y 6L3",
    "Latitude": 42.998178,
    "Longitude": -81.228867,
    "Country": "CA",
    "Timezone Name": "America/Toronto"
  },
  {
    "Name": "Santé Manitouwadge Health",
    "Address1": "1 Health Care Crescent",
    "Address2": "",
    "City": "Manitouwadge",
    "Province": "Ontario",
    "Postal Code": "P0T 2C0",
    "Latitude": 49.121541,
    "Longitude": -85.838406,
    "Country": "CA",
    "Timezone Name": "America/Toronto"
  },
  {
    "Name": "North of Superior Health Group - Marathon",
    "Address1": "26 Peninsula Road",
    "Address2": "",
    "City": "Marathon",
    "Province": "Ontario",
    "Postal Code": "P0T 2E0",
    "Latitude": 48.71831,
    "Longitude": -86.377675,
    "Country": "CA",
    "Timezone Name": "America/Toronto"
  },
  {
    "Name": "Mattawa Hospital",
    "Address1": "217 Turcotte Park Road",
    "Address2": "",
    "City": "Mattawa",
    "Province": "Ontario",
    "Postal Code": "P0H 1V0",
    "Latitude": 46.311002,
    "Longitude": -78.715609,
    "Country": "CA",
    "Timezone Name": "America/Toronto"
  },
  {
    "Name": "Midland Assessment Centre",
    "Address1": "845 King Street",
    "Address2": "Unit 3",
    "City": "Midland",
    "Province": "Ontario",
    "Postal Code": "L4R 0B7",
    "Latitude": 44.734641,
    "Longitude": -79.871374,
    "Country": "CA",
    "Timezone Name": "America/Toronto"
  },
  {
    "Name": "Weeneebayko General Hospital",
    "Address1": "Moose Factory",
    "Address2": "19 Hospital Drive",
    "City": "Moose Factory",
    "Province": "Ontario",
    "Postal Code": "P0L 1W0",
    "Latitude": 49.005653,
    "Longitude": -80.502905,
    "Country": "CA",
    "Timezone Name": "America/Toronto"
  },
  {
    "Name": "Moosonee Health Centre",
    "Address1": "5 Percy's Way",
    "Address2": "",
    "City": "Moosonee",
    "Province": "Ontario",
    "Postal Code": "P0L 1Y0",
    "Latitude": 51.27027,
    "Longitude": -80.653348,
    "Country": "CA",
    "Timezone Name": "America/Toronto"
  },
  {
    "Name": "Rural Wellington Assessment Centre / Mount Forest & District Sports Complex",
    "Address1": "850 Princess Street",
    "Address2": "",
    "City": "Mount Forest",
    "Province": "Ontario",
    "Postal Code": "N0G 2L3",
    "Latitude": 42.878942,
    "Longitude": -82.153168,
    "Country": "CA",
    "Timezone Name": "America/Toronto"
  },
  {
    "Name": "Lennox and Addington County General Hospital",
    "Address1": "310 Bridge Street West",
    "Address2": "",
    "City": "Napanee",
    "Province": "Ontario",
    "Postal Code": "K7R 2Z4",
    "Latitude": 44.239187,
    "Longitude": -76.969355,
    "Country": "CA",
    "Timezone Name": "America/Toronto"
  },
  {
    "Name": "Niagara Health Greater Niagara General Site",
    "Address1": "5673 North Street",
    "Address2": "",
    "City": "Niagara Falls",
    "Province": "Ontario",
    "Postal Code": "L2G 1J4",
    "Latitude": 43.093698,
    "Longitude": -79.088722,
    "Country": "CA",
    "Timezone Name": "America/Toronto"
  },
  {
    "Name": "Nipigon District Memorial Hospital",
    "Address1": "125 Hogan Road",
    "Address2": "",
    "City": "Nipigon",
    "Province": "Ontario",
    "Postal Code": "P0T 2J0",
    "Latitude": 49.014522,
    "Longitude": -88.284525,
    "Country": "CA",
    "Timezone Name": "America/Nipigon"
  },
  {
    "Name": "North Bay Regional Health Centre",
    "Address1": "50 College Drive",
    "Address2": "",
    "City": "North Bay",
    "Province": "Ontario",
    "Postal Code": "P1B 5A4",
    "Latitude": 46.345805,
    "Longitude": -79.487009,
    "Country": "CA",
    "Timezone Name": "America/Toronto"
  },
  {
    "Name": "Six Nations COVID-19 Assessment & Drive-Through Test Centre",
    "Address1": "1738 Fourth Line Road",
    "Address2": "",
    "City": "Ohsweken",
    "Province": "Ontario",
    "Postal Code": "N0A 1M0",
    "Latitude": 43.078621,
    "Longitude": -80.139311,
    "Country": "CA",
    "Timezone Name": "America/Toronto"
  },
  {
    "Name": "Headwaters Health Care Centre",
    "Address1": "140 Rolling Hills Drive",
    "Address2": "",
    "City": "Orangeville",
    "Province": "Ontario",
    "Postal Code": "L9W 4X9",
    "Latitude": 43.9191,
    "Longitude": -80.0725,
    "Country": "CA",
    "Timezone Name": "America/Toronto"
  },
  {
    "Name": "Orillia Soldiers' Memorial Hospital",
    "Address1": "170 Colborne Street East",
    "Address2": "",
    "City": "Orillia",
    "Province": "Ontario",
    "Postal Code": "L3V 2Z3",
    "Latitude": 44.604663,
    "Longitude": -79.426677,
    "Country": "CA",
    "Timezone Name": "America/Toronto"
  },
  {
    "Name": "Brewer Park Arena",
    "Address1": "151 Brewer Way",
    "Address2": "",
    "City": "Ottawa",
    "Province": "Ontario",
    "Postal Code": "K1S 5T1",
    "Latitude": 45.389023,
    "Longitude": -75.691057,
    "Country": "CA",
    "Timezone Name": "America/Toronto"
  },
  {
    "Name": "Akausivik Inuit Family Health Team - COVID-19 Assessment Centre",
    "Address1": "24 Selkirk Street",
    "Address2": "Suite 300",
    "City": "Ottawa",
    "Province": "Ontario",
    "Postal Code": "K1L 0A4",
    "Latitude": 45.431673,
    "Longitude": -75.667589,
    "Country": "CA",
    "Timezone Name": "America/Toronto"
  },
  {
    "Name": "Hôpital Montfort - Heron Location",
    "Address1": "1485 Heron Road",
    "Address2": "",
    "City": "Ottawa",
    "Province": "Ontario",
    "Postal Code": "K1V 6A6",
    "Latitude": 45.380228,
    "Longitude": -75.653733,
    "Country": "CA",
    "Timezone Name": "America/Toronto"
  },
  {
    "Name": "Queensway Carleton Hospital - D. Aubrey Moodie School",
    "Address1": "595 Moodie Drive",
    "Address2": "",
    "City": "Ottawa",
    "Province": "Ontario",
    "Postal Code": "K2H 8A8",
    "Latitude": 45.311594,
    "Longitude": -75.826723,
    "Country": "CA",
    "Timezone Name": "America/Toronto"
  },
  {
    "Name": "Grey Bruce Health Services - Owen Sound",
    "Address1": "1800 8th Street East",
    "Address2": "",
    "City": "Owen Sound",
    "Province": "Ontario",
    "Postal Code": "N4K 6M0",
    "Latitude": 44.567484,
    "Longitude": -80.910974,
    "Country": "CA",
    "Timezone Name": "America/Toronto"
  },
  {
    "Name": "West Parry Sound Health Centre",
    "Address1": "70 Joseph Street",
    "Address2": "Unit 105 & 106",
    "City": "Parry Sound",
    "Province": "Ontario",
    "Postal Code": "P2A 2G5",
    "Latitude": 45.359231,
    "Longitude": -80.042807,
    "Country": "CA",
    "Timezone Name": "America/Toronto"
  },
  {
    "Name": "Peawanuck Nursing Station",
    "Address1": "",
    "Address2": "",
    "City": "Peawanuck",
    "Province": "Ontario",
    "Postal Code": "P0L 2H0",
    "Latitude": 55.011489,
    "Longitude": -85.424194,
    "Country": "CA",
    "Timezone Name": "America/Toronto"
  },
  {
    "Name": "Pembroke Assessment Centre",
    "Address1": "7 International Drive",
    "Address2": "",
    "City": "Pembroke",
    "Province": "Ontario",
    "Postal Code": "K8A 6W5",
    "Latitude": 45.800588,
    "Longitude": -77.116528,
    "Country": "CA",
    "Timezone Name": "America/Toronto"
  },
  {
    "Name": "Kinsmen Civic Centre",
    "Address1": "1 Kinsmen Way",
    "Address2": "",
    "City": "Peterborough",
    "Province": "Ontario",
    "Postal Code": "K9J 5Y6",
    "Latitude": 44.293523,
    "Longitude": -78.342407,
    "Country": "CA",
    "Timezone Name": "America/Toronto"
  },
  {
    "Name": "COVID-19 Assessment Centre at PRHC",
    "Address1": "1 Hospital Drive",
    "Address2": "",
    "City": "Peterborough",
    "Province": "Ontario",
    "Postal Code": "K9J 7C6",
    "Latitude": 44.300173,
    "Longitude": -78.347141,
    "Country": "CA",
    "Timezone Name": "America/Toronto"
  },
  {
    "Name": "Rural Lambton Assessment Center",
    "Address1": "4130 Glenview Road",
    "Address2": "",
    "City": "Petrolia",
    "Province": "Ontario",
    "Postal Code": "N0N 1R0",
    "Latitude": 42.877013,
    "Longitude": -82.148583,
    "Country": "CA",
    "Timezone Name": "America/Toronto"
  },
  {
    "Name": "Prince Edward County Community Centre",
    "Address1": "375 Main Street",
    "Address2": "",
    "City": "Picton",
    "Province": "Ontario",
    "Postal Code": "K0K 2T0",
    "Latitude": 44.323088,
    "Longitude": -76.874593,
    "Country": "CA",
    "Timezone Name": "America/Toronto"
  },
  {
    "Name": "Rainy River Health Centre",
    "Address1": "207 Victoria Avenue",
    "Address2": "",
    "City": "Rainy River",
    "Province": "Ontario",
    "Postal Code": "P9A 2B7",
    "Latitude": 48.6076,
    "Longitude": -93.392739,
    "Country": "CA",
    "Timezone Name": "America/Winnipeg"
  },
  {
    "Name": "Red Lake Guardian Pharmacy",
    "Address1": "51G Highway 105",
    "Address2": "",
    "City": "Red Lake",
    "Province": "Ontario",
    "Postal Code": "P0V 2M0",
    "Latitude": 50.565561,
    "Longitude": -93.176857,
    "Country": "CA",
    "Timezone Name": "America/Winnipeg"
  },
  {
    "Name": "Arnprior Regional Health",
    "Address1": "1 Ma Te Way Park Drive",
    "Address2": "",
    "City": "Renfrew",
    "Province": "Ontario",
    "Postal Code": "K7V 2T5",
    "Latitude": 45.465028,
    "Longitude": -76.695389,
    "Country": "CA",
    "Timezone Name": "America/Toronto"
  },
  {
    "Name": "Rockland COVID-19 Assessment Centre",
    "Address1": "2741 Chamberland Street",
    "Address2": "",
    "City": "Rockland",
    "Province": "Ontario",
    "Postal Code": "K4K 0B4",
    "Latitude": 45.544791,
    "Longitude": -75.301228,
    "Country": "CA",
    "Timezone Name": "America/Toronto"
  },
  {
    "Name": "Twin Bridges Nurse Practitioner Clinic",
    "Address1": "153 Christina Street South",
    "Address2": "",
    "City": "Sarnia",
    "Province": "Ontario",
    "Postal Code": "N7T 2M0",
    "Latitude": 42.968987,
    "Longitude": -82.408882,
    "Country": "CA",
    "Timezone Name": "America/Toronto"
  },
  {
    "Name": "Sault Area Hospital",
    "Address1": "165 Drive In Road",
    "Address2": "",
    "City": "Sault Ste. Marie",
    "Province": "Ontario",
    "Postal Code": "P6B 5X5",
    "Latitude": 46.547642,
    "Longitude": -84.322115,
    "Country": "CA",
    "Timezone Name": "America/Toronto"
  },
  {
    "Name": "Sioux Lookout Meno Ya Win Health Centre",
    "Address1": "1 Meno Ya Win Way",
    "Address2": "",
    "City": "Sioux Lookout",
    "Province": "Ontario",
    "Postal Code": "P8T 1B4",
    "Latitude": 50.100096,
    "Longitude": -91.919027,
    "Country": "CA",
    "Timezone Name": "America/Winnipeg"
  },
  {
    "Name": "Perth and Smiths Falls District Hospital - Smiths Falls Site",
    "Address1": "60 Cornelia Street West",
    "Address2": "",
    "City": "Smiths Falls",
    "Province": "Ontario",
    "Postal Code": "K7A 2H9",
    "Latitude": 44.906383,
    "Longitude": -76.031861,
    "Country": "CA",
    "Timezone Name": "America/Toronto"
  },
  {
    "Name": "Smooth Rock Falls Hospital",
    "Address1": "107 Kelly Road",
    "Address2": "",
    "City": "Smooth Rock Falls",
    "Province": "Ontario",
    "Postal Code": "P0L 2B0",
    "Latitude": 49.275989,
    "Longitude": -81.612393,
    "Country": "CA",
    "Timezone Name": "America/Toronto"
  },
  {
    "Name": "Niagara Health St. Catharines Site",
    "Address1": "1200 Fourth Avenue",
    "Address2": "",
    "City": "St. Catharines",
    "Province": "Ontario",
    "Postal Code": "L2S 0A9",
    "Latitude": 43.15323,
    "Longitude": -79.27808,
    "Country": "CA",
    "Timezone Name": "America/Toronto"
  },
  {
    "Name": "St. Thomas Elgin General Hospital",
    "Address1": "189 Elm Street",
    "Address2": "",
    "City": "St. Thomas",
    "Province": "Ontario",
    "Postal Code": "N5R 5C4",
    "Latitude": 42.600932,
    "Longitude": -81.607695,
    "Country": "CA",
    "Timezone Name": "America/Toronto"
  },
  {
    "Name": "Stratford General Hospital",
    "Address1": "46 General Hospital Drive",
    "Address2": "",
    "City": "Stratford",
    "Province": "Ontario",
    "Postal Code": "N5A 2Y6",
    "Latitude": 43.368645,
    "Longitude": -80.995672,
    "Country": "CA",
    "Timezone Name": "America/Toronto"
  },
  {
    "Name": "West Nipissing General Hospital",
    "Address1": "219 O'Hara Street",
    "Address2": "",
    "City": "Sturgeon Falls",
    "Province": "Ontario",
    "Postal Code": "P2B 2Y6",
    "Latitude": 46.3668,
    "Longitude": -79.91702,
    "Country": "CA",
    "Timezone Name": "America/Toronto"
  },
  {
    "Name": "NEOMO Medical",
    "Address1": "885 Prete Street",
    "Address2": "",
    "City": "Sudbury",
    "Province": "Ontario",
    "Postal Code": "P3E 3X9",
    "Latitude": 46.472668,
    "Longitude": -81.006129,
    "Country": "CA",
    "Timezone Name": "America/Toronto"
  },
  {
    "Name": "Primacy Medical Centre",
    "Address1": "1485 Lasalle Boulevard",
    "Address2": "",
    "City": "Sudbury",
    "Province": "Ontario",
    "Postal Code": "P3A 1Z8",
    "Latitude": 46.521515,
    "Longitude": -80.940402,
    "Country": "CA",
    "Timezone Name": "America/Toronto"
  },
  {
    "Name": "Health Sciences North - HSNRI Assessment Centre",
    "Address1": "56 Walford Road",
    "Address2": "",
    "City": "Sudbury",
    "Province": "Ontario",
    "Postal Code": "P3E 5J1",
    "Latitude": 46.4643,
    "Longitude": -81.00215,
    "Country": "CA",
    "Timezone Name": "America/Toronto"
  },
  {
    "Name": "Temiskaming Hospital",
    "Address1": "421 Shepherdson Road",
    "Address2": "",
    "City": "Temiskaming Shores",
    "Province": "Ontario",
    "Postal Code": "P0J 1P0",
    "Latitude": 47.493835,
    "Longitude": -79.695675,
    "Country": "CA",
    "Timezone Name": "America/Toronto"
  },
  {
    "Name": "North of Superior Health Group - McCausland",
    "Address1": "Terrace Bay",
    "Address2": "20B Cartier Road",
    "City": "Terrace Bay",
    "Province": "Ontario",
    "Postal Code": "P0T 2W0",
    "Latitude": 48.785078,
    "Longitude": -87.094057,
    "Country": "CA",
    "Timezone Name": "America/Toronto"
  },
  {
    "Name": "North Shore Health Network - Thessalon",
    "Address1": "135 Dawson Drive",
    "Address2": "",
    "City": "Thessalon",
    "Province": "Ontario",
    "Postal Code": "P0R 1L0",
    "Latitude": 46.26382,
    "Longitude": -83.554463,
    "Country": "CA",
    "Timezone Name": "America/Toronto"
  },
  {
    "Name": "Superior North EMS Community Paramedicine Program",
    "Address1": "105 Junot Avenue South",
    "Address2": "",
    "City": "Thunder Bay",
    "Province": "Ontario",
    "Postal Code": "P7B 4X6",
    "Latitude": 48.444912,
    "Longitude": -89.254543,
    "Country": "CA",
    "Timezone Name": "America/Thunder_Bay"
  },
  {
    "Name": "Thunder Bay Assessment Centre",
    "Address1": "980 Oliver Road",
    "Address2": "",
    "City": "Thunder Bay",
    "Province": "Ontario",
    "Postal Code": "P7B 6V4",
    "Latitude": 48.424589,
    "Longitude": -89.269183,
    "Country": "CA",
    "Timezone Name": "America/Thunder_Bay"
  },
  {
    "Name": "Tillsonburg District Memorial Hospital",
    "Address1": "17 Bear Street",
    "Address2": "",
    "City": "Tillsonburg",
    "Province": "Ontario",
    "Postal Code": "N4G 1V4",
    "Latitude": 42.863683,
    "Longitude": -80.733714,
    "Country": "CA",
    "Timezone Name": "America/Toronto"
  },
  {
    "Name": "Timmins COVID-19 Assessment Centre",
    "Address1": "651 Ross Avenue East",
    "Address2": "",
    "City": "Timmins",
    "Province": "Ontario",
    "Postal Code": "P4N 8P2",
    "Latitude": 48.486148,
    "Longitude": -81.311589,
    "Country": "CA",
    "Timezone Name": "America/Toronto"
  },
  {
    "Name": "Quinte West COVID-19 Assessment Centre",
    "Address1": "8 Couch Crescent",
    "Address2": "",
    "City": "Trenton",
    "Province": "Ontario",
    "Postal Code": "K8V 5S6",
    "Latitude": 44.102708,
    "Longitude": -77.569334,
    "Country": "CA",
    "Timezone Name": "America/Toronto"
  },
  {
    "Name": "Kitchener-Waterloo COVID-19 Assessment Centre - Westmount Plaza",
    "Address1": "50 Westmount Road North",
    "Address2": "",
    "City": "Waterloo",
    "Province": "Ontario",
    "Postal Code": "N2L 6J7",
    "Latitude": 43.461355,
    "Longitude": -80.537079,
    "Country": "CA",
    "Timezone Name": "America/Toronto"
  },
  {
    "Name": "St. Mary's General Hospital - Bathurst Site",
    "Address1": "50 Bathurst Drive",
    "Address2": "Unit 1",
    "City": "Waterloo",
    "Province": "Ontario",
    "Postal Code": "N2V 2C5",
    "Latitude": 43.5073,
    "Longitude": -80.53855,
    "Country": "CA",
    "Timezone Name": "America/Toronto"
  },
  {
    "Name": "Michipicoten Memorial Community Centre",
    "Address1": "3 Chris Simon Drive",
    "Address2": "",
    "City": "Wawa",
    "Province": "Ontario",
    "Postal Code": "P0S 1K0",
    "Latitude": 47.992928,
    "Longitude": -84.77402,
    "Country": "CA",
    "Timezone Name": "America/Toronto"
  },
  {
    "Name": "Niagara Health - Welland Hospital Site (WHS)",
    "Address1": "65 Third Street",
    "Address2": "",
    "City": "Welland",
    "Province": "Ontario",
    "Postal Code": "L3B 4W6",
    "Latitude": 42.979891,
    "Longitude": -79.248593,
    "Country": "CA",
    "Timezone Name": "America/Toronto"
  },
  {
    "Name": "Winchester COVID-19 Assessment Centre",
    "Address1": "515 Albert Street",
    "Address2": "",
    "City": "Winchester",
    "Province": "Ontario",
    "Postal Code": "K0C 2K0",
    "Latitude": 45.313933,
    "Longitude": -76.040407,
    "Country": "CA",
    "Timezone Name": "America/Toronto"
  },
  {
    "Name": "Windsor Regional Hospital - Ouellette Campus",
    "Address1": "1030 Ouellette Avenue",
    "Address2": "",
    "City": "Windsor",
    "Province": "Ontario",
    "Postal Code": "N9A 1E1",
    "Latitude": 42.308443,
    "Longitude": -83.031978,
    "Country": "CA",
    "Timezone Name": "America/Toronto"
  },
  {
    "Name": "Woodstock General Hospital",
    "Address1": "310 Juliana Drive",
    "Address2": "",
    "City": "Woodstock",
    "Province": "Ontario",
    "Postal Code": "N4V 0A4",
    "Latitude": 43.107299,
    "Longitude": -80.754094,
    "Country": "CA",
    "Timezone Name": "America/Toronto"
  }
]
